{
  "type": "FeatureCollection",
  "features": [
    {
      "type": "Feature",
      "geometry": {
        "type": "Point",
        "coordinates": [
          -145.494,
          -17.3595
        ]
      },
      "properties": {
        "nameshort": "Anaa Airport",
        "country": "French Polynesia"
      }
    },
    {
      "type": "Feature",
      "geometry": {
        "type": "Point",
        "coordinates": [
          7.8103,
          36.8236
        ]
      },
      "properties": {
        "nameshort": "El Mellah Airport",
        "country": "Algeria"
      }
    },
    {
      "type": "Feature",
      "geometry": {
        "type": "Point",
        "coordinates": [
          9.85606,
          57.0952
        ]
      },
      "properties": {
        "nameshort": "Aalborg Airport",
        "country": "Denmark"
      }
    },
    {
      "type": "Feature",
      "geometry": {
        "type": "Point",
        "coordinates": [
          31.5333,
          -24.8
        ]
      },
      "properties": {
        "nameshort": "Mala Mala",
        "country": "South Africa"
      }
    },
    {
      "type": "Feature",
      "geometry": {
        "type": "Point",
        "coordinates": [
          55.75,
          24.25
        ]
      },
      "properties": {
        "nameshort": "Al Ain Airport",
        "country": "United Arab Emirates"
      }
    },
    {
      "type": "Feature",
      "geometry": {
        "type": "Point",
        "coordinates": [
          37.3167,
          44.9
        ]
      },
      "properties": {
        "nameshort": "Olkhovka Airport",
        "country": "Russia"
      }
    },
    {
      "type": "Feature",
      "geometry": {
        "type": "Point",
        "coordinates": [
          10.6154,
          56.3088
        ]
      },
      "properties": {
        "nameshort": "Tirstrup Airport",
        "country": "Denmark"
      }
    },
    {
      "type": "Feature",
      "geometry": {
        "type": "Point",
        "coordinates": [
          88.0845,
          47.7406
        ]
      },
      "properties": {
        "nameshort": "Altay Airport",
        "country": "China"
      }
    },
    {
      "type": "Feature",
      "geometry": {
        "type": "Point",
        "coordinates": [
          -46.9653,
          -19.5603
        ]
      },
      "properties": {
        "nameshort": "Romeu Zuma Airport",
        "country": "Brazil"
      }
    },
    {
      "type": "Feature",
      "geometry": {
        "type": "Point",
        "coordinates": [
          52.1694,
          16.1947
        ]
      },
      "properties": {
        "nameshort": "Al Gaidah Airport",
        "country": "Yemen"
      }
    },
    {
      "type": "Feature",
      "geometry": {
        "type": "Point",
        "coordinates": [
          91.4333,
          53.7167
        ]
      },
      "properties": {
        "nameshort": "Abakan",
        "country": "Russian Federation"
      }
    },
    {
      "type": "Feature",
      "geometry": {
        "type": "Point",
        "coordinates": [
          -1.85,
          38.9833
        ]
      },
      "properties": {
        "nameshort": "Los Llanos",
        "country": "Spain"
      }
    },
    {
      "type": "Feature",
      "geometry": {
        "type": "Point",
        "coordinates": [
          48.3032,
          30.3374
        ]
      },
      "properties": {
        "nameshort": "",
        "country": "Iran"
      }
    },
    {
      "type": "Feature",
      "geometry": {
        "type": "Point",
        "coordinates": [
          -75.4342,
          40.6514
        ]
      },
      "properties": {
        "nameshort": "Lehigh Valley International Airport",
        "country": "United States"
      }
    },
    {
      "type": "Feature",
      "geometry": {
        "type": "Point",
        "coordinates": [
          -99.6803,
          32.4164
        ]
      },
      "properties": {
        "nameshort": "Abilene Regional Airport",
        "country": "United States"
      }
    },
    {
      "type": "Feature",
      "geometry": {
        "type": "Point",
        "coordinates": [
          -3.9292,
          5.2556
        ]
      },
      "properties": {
        "nameshort": "Abidjan Port Bouet Airport",
        "country": "Ivory Coast"
      }
    },
    {
      "type": "Feature",
      "geometry": {
        "type": "Point",
        "coordinates": [
          44.2797,
          6.73719
        ]
      },
      "properties": {
        "nameshort": "Kabri Dar",
        "country": "Ethiopia"
      }
    },
    {
      "type": "Feature",
      "geometry": {
        "type": "Point",
        "coordinates": [
          -157.854,
          67.1058
        ]
      },
      "properties": {
        "nameshort": "Ambler Airport",
        "country": "United States"
      }
    },
    {
      "type": "Feature",
      "geometry": {
        "type": "Point",
        "coordinates": [
          142.453,
          -10.9438
        ]
      },
      "properties": {
        "nameshort": "Bamaga Airport",
        "country": "Australia"
      }
    },
    {
      "type": "Feature",
      "geometry": {
        "type": "Point",
        "coordinates": [
          -106.625,
          35.0494
        ]
      },
      "properties": {
        "nameshort": "Albuquerque International Airport",
        "country": "United States"
      }
    },
    {
      "type": "Feature",
      "geometry": {
        "type": "Point",
        "coordinates": [
          -98.4189,
          45.4536
        ]
      },
      "properties": {
        "nameshort": "Aberdeen Regional Airport",
        "country": "United States"
      }
    },
    {
      "type": "Feature",
      "geometry": {
        "type": "Point",
        "coordinates": [
          31.6125,
          22.3722
        ]
      },
      "properties": {
        "nameshort": "Abu Simbel Airport",
        "country": "Egypt"
      }
    },
    {
      "type": "Feature",
      "geometry": {
        "type": "Point",
        "coordinates": [
          41.6342,
          20.2961
        ]
      },
      "properties": {
        "nameshort": "Al Baha Airport",
        "country": "Saudi Arabia"
      }
    },
    {
      "type": "Feature",
      "geometry": {
        "type": "Point",
        "coordinates": [
          7.2661,
          9.0056
        ]
      },
      "properties": {
        "nameshort": "Abuja International Airport",
        "country": "Nigeria"
      }
    },
    {
      "type": "Feature",
      "geometry": {
        "type": "Point",
        "coordinates": [
          146.956,
          -36.0678
        ]
      },
      "properties": {
        "nameshort": "Albury Airport",
        "country": "Australia"
      }
    },
    {
      "type": "Feature",
      "geometry": {
        "type": "Point",
        "coordinates": [
          -84.1867,
          31.5328
        ]
      },
      "properties": {
        "nameshort": "Southwest Georgia Regional Airport",
        "country": "United States"
      }
    },
    {
      "type": "Feature",
      "geometry": {
        "type": "Point",
        "coordinates": [
          -2.20373,
          57.2004
        ]
      },
      "properties": {
        "nameshort": "Aberdeen Dyce International Airport",
        "country": "United Kingdom"
      }
    },
    {
      "type": "Feature",
      "geometry": {
        "type": "Point",
        "coordinates": [
          -99.7536,
          16.7561
        ]
      },
      "properties": {
        "nameshort": "General Juan N Alvarez International Airport",
        "country": "Mexico"
      }
    },
    {
      "type": "Feature",
      "geometry": {
        "type": "Point",
        "coordinates": [
          -0.17,
          5.5964
        ]
      },
      "properties": {
        "nameshort": "Kotoka International Airport",
        "country": "Ghana"
      }
    },
    {
      "type": "Feature",
      "geometry": {
        "type": "Point",
        "coordinates": [
          -13.6085,
          28.9521
        ]
      },
      "properties": {
        "nameshort": "Arrecife Airport",
        "country": "Spain"
      }
    },
    {
      "type": "Feature",
      "geometry": {
        "type": "Point",
        "coordinates": [
          9.55376,
          47.4887
        ]
      },
      "properties": {
        "nameshort": "Altenrhein Airport",
        "country": "Switzerland"
      }
    },
    {
      "type": "Feature",
      "geometry": {
        "type": "Point",
        "coordinates": [
          -2.22089,
          49.7134
        ]
      },
      "properties": {
        "nameshort": "The Blaye Airport",
        "country": "United Kingdom"
      }
    },
    {
      "type": "Feature",
      "geometry": {
        "type": "Point",
        "coordinates": [
          -70.0649,
          41.2568
        ]
      },
      "properties": {
        "nameshort": "Nantucket Memorial Airport",
        "country": "United States"
      }
    },
    {
      "type": "Feature",
      "geometry": {
        "type": "Point",
        "coordinates": [
          -151.696,
          68.1609
        ]
      },
      "properties": {
        "nameshort": "Sahand Airport",
        "country": "Iran"
      }
    },
    {
      "type": "Feature",
      "geometry": {
        "type": "Point",
        "coordinates": [
          18.0064,
          47.7006
        ]
      },
      "properties": {
        "nameshort": "",
        "country": "Russia"
      }
    },
    {
      "type": "Feature",
      "geometry": {
        "type": "Point",
        "coordinates": [
          -97.2234,
          31.609
        ]
      },
      "properties": {
        "nameshort": "Waco Regional Airport",
        "country": "United States"
      }
    },
    {
      "type": "Feature",
      "geometry": {
        "type": "Point",
        "coordinates": [
          -124.108,
          40.9698
        ]
      },
      "properties": {
        "nameshort": "Arcata Airport",
        "country": "United States"
      }
    },
    {
      "type": "Feature",
      "geometry": {
        "type": "Point",
        "coordinates": [
          104.89,
          25.0887
        ]
      },
      "properties": {
        "nameshort": "Xingyi",
        "country": "China"
      }
    },
    {
      "type": "Feature",
      "geometry": {
        "type": "Point",
        "coordinates": [
          -74.5716,
          39.4512
        ]
      },
      "properties": {
        "nameshort": "Atlantic City International Airport",
        "country": "United States"
      }
    },
    {
      "type": "Feature",
      "geometry": {
        "type": "Point",
        "coordinates": [
          61.4962,
          31.0385
        ]
      },
      "properties": {
        "nameshort": "Zabol A/P",
        "country": "Iran"
      }
    },
    {
      "type": "Feature",
      "geometry": {
        "type": "Point",
        "coordinates": [
          35.2803,
          36.9811
        ]
      },
      "properties": {
        "nameshort": "Sakirpasa Airport",
        "country": "Turkey"
      }
    },
    {
      "type": "Feature",
      "geometry": {
        "type": "Point",
        "coordinates": [
          27.1603,
          38.32
        ]
      },
      "properties": {
        "nameshort": "Gaziemir Airport",
        "country": "Turkey"
      }
    },
    {
      "type": "Feature",
      "geometry": {
        "type": "Point",
        "coordinates": [
          38.8011,
          8.9783
        ]
      },
      "properties": {
        "nameshort": "Bole International Airport",
        "country": "Ethiopia"
      }
    },
    {
      "type": "Feature",
      "geometry": {
        "type": "Point",
        "coordinates": [
          45.0306,
          12.8278
        ]
      },
      "properties": {
        "nameshort": "Aden International Airport",
        "country": "Yemen"
      }
    },
    {
      "type": "Feature",
      "geometry": {
        "type": "Point",
        "coordinates": [
          38.3357,
          37.8099
        ]
      },
      "properties": {
        "nameshort": "Adiyaman Airport",
        "country": "Turkey"
      }
    },
    {
      "type": "Feature",
      "geometry": {
        "type": "Point",
        "coordinates": [
          35.9822,
          31.973
        ]
      },
      "properties": {
        "nameshort": "Al Matar Airport",
        "country": "Jordan"
      }
    },
    {
      "type": "Feature",
      "geometry": {
        "type": "Point",
        "coordinates": [
          -176.639,
          51.88
        ]
      },
      "properties": {
        "nameshort": "Adak Airport",
        "country": "United States"
      }
    },
    {
      "type": "Feature",
      "geometry": {
        "type": "Point",
        "coordinates": [
          138.529,
          -34.9464
        ]
      },
      "properties": {
        "nameshort": "Adelaide International Airport",
        "country": "Australia"
      }
    },
    {
      "type": "Feature",
      "geometry": {
        "type": "Point",
        "coordinates": [
          -152.512,
          57.7545
        ]
      },
      "properties": {
        "nameshort": "Kodiak Airport",
        "country": "United States"
      }
    },
    {
      "type": "Feature",
      "geometry": {
        "type": "Point",
        "coordinates": [
          48.2951,
          38.2465
        ]
      },
      "properties": {
        "nameshort": "Ardabil Airport",
        "country": "Iran"
      }
    },
    {
      "type": "Feature",
      "geometry": {
        "type": "Point",
        "coordinates": [
          -2.86117,
          56.377
        ]
      },
      "properties": {
        "nameshort": "Leuchars Airport",
        "country": "United Kingdom"
      }
    },
    {
      "type": "Feature",
      "geometry": {
        "type": "Point",
        "coordinates": [
          -81.7092,
          12.5811
        ]
      },
      "properties": {
        "nameshort": "Sesquicentenario Airport",
        "country": "Colombia"
      }
    },
    {
      "type": "Feature",
      "geometry": {
        "type": "Point",
        "coordinates": [
          20.8472,
          13.8486
        ]
      },
      "properties": {
        "nameshort": "Abeche Airport",
        "country": "Chad"
      }
    },
    {
      "type": "Feature",
      "geometry": {
        "type": "Point",
        "coordinates": [
          -58.4113,
          -34.5617
        ]
      },
      "properties": {
        "nameshort": "Aeroparque Jorge Newbery",
        "country": "Argentina"
      }
    },
    {
      "type": "Feature",
      "geometry": {
        "type": "Point",
        "coordinates": [
          39.9552,
          43.447
        ]
      },
      "properties": {
        "nameshort": "Adler Airport",
        "country": "Russia"
      }
    },
    {
      "type": "Feature",
      "geometry": {
        "type": "Point",
        "coordinates": [
          6.11129,
          62.5607
        ]
      },
      "properties": {
        "nameshort": "Vigra Airport",
        "country": "Norway"
      }
    },
    {
      "type": "Feature",
      "geometry": {
        "type": "Point",
        "coordinates": [
          -152.65,
          66.55
        ]
      },
      "properties": {
        "nameshort": "Allakaket Airport",
        "country": "United States"
      }
    },
    {
      "type": "Feature",
      "geometry": {
        "type": "Point",
        "coordinates": [
          -92.5417,
          31.323
        ]
      },
      "properties": {
        "nameshort": "Alexandria International Airport",
        "country": "United States"
      }
    },
    {
      "type": "Feature",
      "geometry": {
        "type": "Point",
        "coordinates": [
          -18.0923,
          65.6561
        ]
      },
      "properties": {
        "nameshort": "Akureyri Airport",
        "country": "Iceland"
      }
    },
    {
      "type": "Feature",
      "geometry": {
        "type": "Point",
        "coordinates": [
          -68.4028,
          -34.5886
        ]
      },
      "properties": {
        "nameshort": "San Rafael Airport",
        "country": "Argentina"
      }
    },
    {
      "type": "Feature",
      "geometry": {
        "type": "Point",
        "coordinates": [
          -56.1044,
          -9.8661
        ]
      },
      "properties": {
        "nameshort": "Alta Floresta Airport",
        "country": "Brazil"
      }
    },
    {
      "type": "Feature",
      "geometry": {
        "type": "Point",
        "coordinates": [
          64.2331,
          41.6136
        ]
      },
      "properties": {
        "nameshort": "Zarafshan Airport",
        "country": "Uzbekistan"
      }
    },
    {
      "type": "Feature",
      "geometry": {
        "type": "Point",
        "coordinates": [
          160.95,
          -9.18333
        ]
      },
      "properties": {
        "nameshort": "Afutara Aerodrome",
        "country": "Solomon Islands"
      }
    },
    {
      "type": "Feature",
      "geometry": {
        "type": "Point",
        "coordinates": [
          57.7094,
          36.1903
        ]
      },
      "properties": {
        "nameshort": "Sabzevar Airport",
        "country": "Iran"
      }
    },
    {
      "type": "Feature",
      "geometry": {
        "type": "Point",
        "coordinates": [
          -9.55,
          30.3833
        ]
      },
      "properties": {
        "nameshort": "Almassira Airport",
        "country": "Morocco"
      }
    },
    {
      "type": "Feature",
      "geometry": {
        "type": "Point",
        "coordinates": [
          0.59223,
          44.1736
        ]
      },
      "properties": {
        "nameshort": "La Garenne Airport",
        "country": "France"
      }
    },
    {
      "type": "Feature",
      "geometry": {
        "type": "Point",
        "coordinates": [
          12.8675,
          56.2873
        ]
      },
      "properties": {
        "nameshort": "Angelholm Airport",
        "country": "Sweden"
      }
    },
    {
      "type": "Feature",
      "geometry": {
        "type": "Point",
        "coordinates": [
          149.15,
          -9.33333
        ]
      },
      "properties": {
        "nameshort": "Wanigela",
        "country": "Papua New Guinea"
      }
    },
    {
      "type": "Feature",
      "geometry": {
        "type": "Point",
        "coordinates": [
          -37.6667,
          65.6667
        ]
      },
      "properties": {
        "nameshort": "Angmagssalik Airport",
        "country": "Greenland"
      }
    },
    {
      "type": "Feature",
      "geometry": {
        "type": "Point",
        "coordinates": [
          -134.577,
          57.4996
        ]
      },
      "properties": {
        "nameshort": "Angoon Airport",
        "country": "United States"
      }
    },
    {
      "type": "Feature",
      "geometry": {
        "type": "Point",
        "coordinates": [
          -4.49298,
          36.6749
        ]
      },
      "properties": {
        "nameshort": "Malaga Airport",
        "country": "Spain"
      }
    },
    {
      "type": "Feature",
      "geometry": {
        "type": "Point",
        "coordinates": [
          77.9788,
          27.1632
        ]
      },
      "properties": {
        "nameshort": "Agra Airport",
        "country": "India"
      }
    },
    {
      "type": "Feature",
      "geometry": {
        "type": "Point",
        "coordinates": [
          -81.9732,
          33.3735
        ]
      },
      "properties": {
        "nameshort": "Bush Field Airport",
        "country": "United States"
      }
    },
    {
      "type": "Feature",
      "geometry": {
        "type": "Point",
        "coordinates": [
          -54.6226,
          -25.5266
        ]
      },
      "properties": {
        "nameshort": "Alejo Garcia Airport",
        "country": "Paraguay"
      }
    },
    {
      "type": "Feature",
      "geometry": {
        "type": "Point",
        "coordinates": [
          -102.317,
          21.7047
        ]
      },
      "properties": {
        "nameshort": "Aguascalientes Airport",
        "country": "Mexico"
      }
    },
    {
      "type": "Feature",
      "geometry": {
        "type": "Point",
        "coordinates": [
          -69.2367,
          9.55194
        ]
      },
      "properties": {
        "nameshort": "Acarigua",
        "country": "Venezuela"
      }
    },
    {
      "type": "Feature",
      "geometry": {
        "type": "Point",
        "coordinates": [
          72.175,
          10.8415
        ]
      },
      "properties": {
        "nameshort": "Agatti Island Airport",
        "country": "India"
      }
    },
    {
      "type": "Feature",
      "geometry": {
        "type": "Point",
        "coordinates": [
          42.6556,
          18.24
        ]
      },
      "properties": {
        "nameshort": "Abha Airport",
        "country": "Saudi Arabia"
      }
    },
    {
      "type": "Feature",
      "geometry": {
        "type": "Point",
        "coordinates": [
          -120.151,
          40.2664
        ]
      },
      "properties": {
        "nameshort": "Amedee Army Air Field",
        "country": "United States"
      }
    },
    {
      "type": "Feature",
      "geometry": {
        "type": "Point",
        "coordinates": [
          -1.3,
          -14.5
        ]
      },
      "properties": {
        "nameshort": "Ahe Airport",
        "country": "French Polynesia"
      }
    },
    {
      "type": "Feature",
      "geometry": {
        "type": "Point",
        "coordinates": [
          8.29279,
          40.6319
        ]
      },
      "properties": {
        "nameshort": "Alghero Airport",
        "country": "Italy"
      }
    },
    {
      "type": "Feature",
      "geometry": {
        "type": "Point",
        "coordinates": [
          -84.4041,
          15.4534
        ]
      },
      "properties": {
        "nameshort": "Ahuas Airport",
        "country": "Honduras"
      }
    },
    {
      "type": "Feature",
      "geometry": {
        "type": "Point",
        "coordinates": [
          -3.8383,
          35.1781
        ]
      },
      "properties": {
        "nameshort": "Cote du Rif Airport",
        "country": "Morocco"
      }
    },
    {
      "type": "Feature",
      "geometry": {
        "type": "Point",
        "coordinates": [
          -102.81,
          42.0622
        ]
      },
      "properties": {
        "nameshort": "Alliance Municipal Airport",
        "country": "United States"
      }
    },
    {
      "type": "Feature",
      "geometry": {
        "type": "Point",
        "coordinates": [
          -159.857,
          70.6139
        ]
      },
      "properties": {
        "nameshort": "Wainwright Airport",
        "country": "United States"
      }
    },
    {
      "type": "Feature",
      "geometry": {
        "type": "Point",
        "coordinates": [
          -159.765,
          -18.8299
        ]
      },
      "properties": {
        "nameshort": "Aitutaki Airport",
        "country": "Cook Islands"
      }
    },
    {
      "type": "Feature",
      "geometry": {
        "type": "Point",
        "coordinates": [
          -158.1,
          -20.0333
        ]
      },
      "properties": {
        "nameshort": "Atiu Island",
        "country": "Cook Islands"
      }
    },
    {
      "type": "Feature",
      "geometry": {
        "type": "Point",
        "coordinates": [
          8.79778,
          41.9204
        ]
      },
      "properties": {
        "nameshort": "Campo Dell Oro Airport",
        "country": "France"
      }
    },
    {
      "type": "Feature",
      "geometry": {
        "type": "Point",
        "coordinates": [
          40.1039,
          29.7897
        ]
      },
      "properties": {
        "nameshort": "Al Jouf Airport",
        "country": "Saudi Arabia"
      }
    },
    {
      "type": "Feature",
      "geometry": {
        "type": "Point",
        "coordinates": [
          43.0618,
          39.7239
        ]
      },
      "properties": {
        "nameshort": "Agri Airport",
        "country": "Turkey"
      }
    },
    {
      "type": "Feature",
      "geometry": {
        "type": "Point",
        "coordinates": [
          92.8083,
          23.7361
        ]
      },
      "properties": {
        "nameshort": "Aizwal Airport",
        "country": "India"
      }
    },
    {
      "type": "Feature",
      "geometry": {
        "type": "Point",
        "coordinates": [
          44.3709,
          -12.2234
        ]
      },
      "properties": {
        "nameshort": "Comoros",
        "country": "Comoros"
      }
    },
    {
      "type": "Feature",
      "geometry": {
        "type": "Point",
        "coordinates": [
          19.2647,
          65.592
        ]
      },
      "properties": {
        "nameshort": "Arvidsjaur Airport",
        "country": "Sweden"
      }
    },
    {
      "type": "Feature",
      "geometry": {
        "type": "Point",
        "coordinates": [
          -37.0733,
          -10.985
        ]
      },
      "properties": {
        "nameshort": "Santa Maria Airport",
        "country": "Brazil"
      }
    },
    {
      "type": "Feature",
      "geometry": {
        "type": "Point",
        "coordinates": [
          108.912,
          32.7026
        ]
      },
      "properties": {
        "nameshort": "Ankang Airport",
        "country": "China"
      }
    },
    {
      "type": "Feature",
      "geometry": {
        "type": "Point",
        "coordinates": [
          -174.204,
          52.2217
        ]
      },
      "properties": {
        "nameshort": "Atka Airport",
        "country": "United States"
      }
    },
    {
      "type": "Feature",
      "geometry": {
        "type": "Point",
        "coordinates": [
          23.3189,
          24.1819
        ]
      },
      "properties": {
        "nameshort": "Kufra Airport",
        "country": "Libya"
      }
    },
    {
      "type": "Feature",
      "geometry": {
        "type": "Point",
        "coordinates": [
          -161.218,
          60.8866
        ]
      },
      "properties": {
        "nameshort": "Akiak Airport",
        "country": "United States"
      }
    },
    {
      "type": "Feature",
      "geometry": {
        "type": "Point",
        "coordinates": [
          142.453,
          43.665
        ]
      },
      "properties": {
        "nameshort": "Asahikawa Airport",
        "country": "Japan"
      }
    },
    {
      "type": "Feature",
      "geometry": {
        "type": "Point",
        "coordinates": [
          -154.167,
          56.95
        ]
      },
      "properties": {
        "nameshort": "Akhiok Airport",
        "country": "United States"
      }
    },
    {
      "type": "Feature",
      "geometry": {
        "type": "Point",
        "coordinates": [
          174.782,
          -37.0085
        ]
      },
      "properties": {
        "nameshort": "Auckland International Airport",
        "country": "New Zealand"
      }
    },
    {
      "type": "Feature",
      "geometry": {
        "type": "Point",
        "coordinates": [
          -156.655,
          58.6775
        ]
      },
      "properties": {
        "nameshort": "King Salmon Airport",
        "country": "United States"
      }
    },
    {
      "type": "Feature",
      "geometry": {
        "type": "Point",
        "coordinates": [
          -151.79,
          68.1916
        ]
      },
      "properties": {
        "nameshort": "Anaktuvuk Pass Airport",
        "country": "United States"
      }
    },
    {
      "type": "Feature",
      "geometry": {
        "type": "Point",
        "coordinates": [
          27.3167,
          -27.6667
        ]
      },
      "properties": {
        "nameshort": "Kroonstad Airport",
        "country": "South Africa"
      }
    },
    {
      "type": "Feature",
      "geometry": {
        "type": "Point",
        "coordinates": [
          80.1982,
          41.171
        ]
      },
      "properties": {
        "nameshort": "Aksu Airport",
        "country": "China"
      }
    },
    {
      "type": "Feature",
      "geometry": {
        "type": "Point",
        "coordinates": [
          -78.1509,
          60.8142
        ]
      },
      "properties": {
        "nameshort": "Akulivik Airport",
        "country": "Canada"
      }
    },
    {
      "type": "Feature",
      "geometry": {
        "type": "Point",
        "coordinates": [
          57.2115,
          50.2362
        ]
      },
      "properties": {
        "nameshort": "Aktyubinsk Airport",
        "country": "Kazakhstan"
      }
    },
    {
      "type": "Feature",
      "geometry": {
        "type": "Point",
        "coordinates": [
          92.8803,
          20.1303
        ]
      },
      "properties": {
        "nameshort": "Sittwe Airport",
        "country": "Myanmar"
      }
    },
    {
      "type": "Feature",
      "geometry": {
        "type": "Point",
        "coordinates": [
          77.0319,
          43.3608
        ]
      },
      "properties": {
        "nameshort": "Alma Ata Airport",
        "country": "Kazakhstan"
      }
    },
    {
      "type": "Feature",
      "geometry": {
        "type": "Point",
        "coordinates": [
          -73.809,
          42.7426
        ]
      },
      "properties": {
        "nameshort": "Albany International Airport",
        "country": "United States"
      }
    },
    {
      "type": "Feature",
      "geometry": {
        "type": "Point",
        "coordinates": [
          -0.5576,
          38.2844
        ]
      },
      "properties": {
        "nameshort": "Alicante Airport",
        "country": "Spain"
      }
    },
    {
      "type": "Feature",
      "geometry": {
        "type": "Point",
        "coordinates": [
          23.3571,
          69.9793
        ]
      },
      "properties": {
        "nameshort": "Alta Airport",
        "country": "Norway"
      }
    },
    {
      "type": "Feature",
      "geometry": {
        "type": "Point",
        "coordinates": [
          3.21935,
          36.6993
        ]
      },
      "properties": {
        "nameshort": "Houari Boumediene Airport",
        "country": "Algeria"
      }
    },
    {
      "type": "Feature",
      "geometry": {
        "type": "Point",
        "coordinates": [
          117.808,
          -34.9447
        ]
      },
      "properties": {
        "nameshort": "Albany Airport",
        "country": "Australia"
      }
    },
    {
      "type": "Feature",
      "geometry": {
        "type": "Point",
        "coordinates": [
          -105.994,
          32.8407
        ]
      },
      "properties": {
        "nameshort": "Alamogordo White Sands Regional Airport",
        "country": "United States"
      }
    },
    {
      "type": "Feature",
      "geometry": {
        "type": "Point",
        "coordinates": [
          -92.3951,
          42.5509
        ]
      },
      "properties": {
        "nameshort": "Waterloo Municipal Airport",
        "country": "United States"
      }
    },
    {
      "type": "Feature",
      "geometry": {
        "type": "Point",
        "coordinates": [
          37.2267,
          36.1808
        ]
      },
      "properties": {
        "nameshort": "Aleppo International Airport",
        "country": "Syria"
      }
    },
    {
      "type": "Feature",
      "geometry": {
        "type": "Point",
        "coordinates": [
          -105.865,
          37.4444
        ]
      },
      "properties": {
        "nameshort": "San Luis Valley Regional Airport",
        "country": "United States"
      }
    },
    {
      "type": "Feature",
      "geometry": {
        "type": "Point",
        "coordinates": [
          -118.283,
          46.0879
        ]
      },
      "properties": {
        "nameshort": "Walla Walla Regional Airport",
        "country": "United States"
      }
    },
    {
      "type": "Feature",
      "geometry": {
        "type": "Point",
        "coordinates": [
          29.9491,
          31.1845
        ]
      },
      "properties": {
        "nameshort": "An-Nuzhah Airport",
        "country": "Egypt"
      }
    },
    {
      "type": "Feature",
      "geometry": {
        "type": "Point",
        "coordinates": [
          -154.246,
          56.8988
        ]
      },
      "properties": {
        "nameshort": "Alitak Seaplane Base",
        "country": "United States"
      }
    },
    {
      "type": "Feature",
      "geometry": {
        "type": "Point",
        "coordinates": [
          -101.706,
          35.2177
        ]
      },
      "properties": {
        "nameshort": "Amarillo International Airport",
        "country": "United States"
      }
    },
    {
      "type": "Feature",
      "geometry": {
        "type": "Point",
        "coordinates": [
          72.6328,
          23.0728
        ]
      },
      "properties": {
        "nameshort": "Sardar Vallabhbhai Patel International Airport",
        "country": "India"
      }
    },
    {
      "type": "Feature",
      "geometry": {
        "type": "Point",
        "coordinates": [
          37.5405,
          6.01327
        ]
      },
      "properties": {
        "nameshort": "Ethiopia",
        "country": "Ethiopia"
      }
    },
    {
      "type": "Feature",
      "geometry": {
        "type": "Point",
        "coordinates": [
          116.098,
          -8.562
        ]
      },
      "properties": {
        "nameshort": "Selaparang",
        "country": "Indonesia"
      }
    },
    {
      "type": "Feature",
      "geometry": {
        "type": "Point",
        "coordinates": [
          35.9936,
          31.7231
        ]
      },
      "properties": {
        "nameshort": "Queen Alia International Airport",
        "country": "Jordan"
      }
    },
    {
      "type": "Feature",
      "geometry": {
        "type": "Point",
        "coordinates": [
          128.078,
          -3.7067
        ]
      },
      "properties": {
        "nameshort": "Pattimura Airport",
        "country": "Indonesia"
      }
    },
    {
      "type": "Feature",
      "geometry": {
        "type": "Point",
        "coordinates": [
          4.77511,
          52.3122
        ]
      },
      "properties": {
        "nameshort": "Schiphol Airport",
        "country": "Netherlands"
      }
    },
    {
      "type": "Feature",
      "geometry": {
        "type": "Point",
        "coordinates": [
          61.5586,
          69.7638
        ]
      },
      "properties": {
        "nameshort": "Amderma Airport",
        "country": "Russia"
      }
    },
    {
      "type": "Feature",
      "geometry": {
        "type": "Point",
        "coordinates": [
          -100.608,
          38.4819
        ]
      },
      "properties": {
        "nameshort": "Ambatomainty",
        "country": "Madagascar"
      }
    },
    {
      "type": "Feature",
      "geometry": {
        "type": "Point",
        "coordinates": [
          -149.961,
          61.1767
        ]
      },
      "properties": {
        "nameshort": "Anchorage International Airport",
        "country": "United States"
      }
    },
    {
      "type": "Feature",
      "geometry": {
        "type": "Point",
        "coordinates": [
          -0.312222,
          47.5603
        ]
      },
      "properties": {
        "nameshort": "A\u00e9roport d'Angers-Marc\u00e9",
        "country": "France"
      }
    },
    {
      "type": "Feature",
      "geometry": {
        "type": "Point",
        "coordinates": [
          -70.4419,
          -23.44
        ]
      },
      "properties": {
        "nameshort": "Cerro Moreno International Airport",
        "country": "Chile"
      }
    },
    {
      "type": "Feature",
      "geometry": {
        "type": "Point",
        "coordinates": [
          0.21835,
          45.7274
        ]
      },
      "properties": {
        "nameshort": "Brie Champniers Airport",
        "country": "France"
      }
    },
    {
      "type": "Feature",
      "geometry": {
        "type": "Point",
        "coordinates": [
          -159.535,
          61.5742
        ]
      },
      "properties": {
        "nameshort": "Aniak Airport",
        "country": "United States"
      }
    },
    {
      "type": "Feature",
      "geometry": {
        "type": "Point",
        "coordinates": [
          46.8543,
          -18.7772
        ]
      },
      "properties": {
        "nameshort": "Madagascar",
        "country": "Madagascar"
      }
    },
    {
      "type": "Feature",
      "geometry": {
        "type": "Point",
        "coordinates": [
          4.45236,
          51.1896
        ]
      },
      "properties": {
        "nameshort": "Deurne Airport",
        "country": "Belgium"
      }
    },
    {
      "type": "Feature",
      "geometry": {
        "type": "Point",
        "coordinates": [
          -61.79,
          17.1375
        ]
      },
      "properties": {
        "nameshort": "V C Bird International Airport",
        "country": "Antigua and Barbuda"
      }
    },
    {
      "type": "Feature",
      "geometry": {
        "type": "Point",
        "coordinates": [
          -160.217,
          62.65
        ]
      },
      "properties": {
        "nameshort": "Anvik Airport",
        "country": "United States"
      }
    },
    {
      "type": "Feature",
      "geometry": {
        "type": "Point",
        "coordinates": [
          16.1236,
          69.3088
        ]
      },
      "properties": {
        "nameshort": "Andoya Airport",
        "country": "Norway"
      }
    },
    {
      "type": "Feature",
      "geometry": {
        "type": "Point",
        "coordinates": [
          12.5111,
          50.9794
        ]
      },
      "properties": {
        "nameshort": "Altenburg Nobitz",
        "country": "Germany"
      }
    },
    {
      "type": "Feature",
      "geometry": {
        "type": "Point",
        "coordinates": [
          30.5172,
          39.7905
        ]
      },
      "properties": {
        "nameshort": "Anadolu University Airport",
        "country": "Turkey"
      }
    },
    {
      "type": "Feature",
      "geometry": {
        "type": "Point",
        "coordinates": [
          13.3634,
          43.6158
        ]
      },
      "properties": {
        "nameshort": "Falconara Airport",
        "country": "Italy"
      }
    },
    {
      "type": "Feature",
      "geometry": {
        "type": "Point",
        "coordinates": [
          140.69,
          40.7357
        ]
      },
      "properties": {
        "nameshort": "Aomori Airport",
        "country": "Japan"
      }
    },
    {
      "type": "Feature",
      "geometry": {
        "type": "Point",
        "coordinates": [
          27.1472,
          35.4239
        ]
      },
      "properties": {
        "nameshort": "Karpathos Airport",
        "country": "Greece"
      }
    },
    {
      "type": "Feature",
      "geometry": {
        "type": "Point",
        "coordinates": [
          -78.324,
          40.2952
        ]
      },
      "properties": {
        "nameshort": "Altoona-Blair County Airport",
        "country": "United States"
      }
    },
    {
      "type": "Feature",
      "geometry": {
        "type": "Point",
        "coordinates": [
          100.404,
          6.1947
        ]
      },
      "properties": {
        "nameshort": "Sultan Abdul Halim Airport",
        "country": "Malaysia"
      }
    },
    {
      "type": "Feature",
      "geometry": {
        "type": "Point",
        "coordinates": [
          -153.839,
          57.4672
        ]
      },
      "properties": {
        "nameshort": "Amook Bay Seaplane Base",
        "country": "United States"
      }
    },
    {
      "type": "Feature",
      "geometry": {
        "type": "Point",
        "coordinates": [
          -104.845,
          39.5752
        ]
      },
      "properties": {
        "nameshort": "Centennial Airport",
        "country": "United States"
      }
    },
    {
      "type": "Feature",
      "geometry": {
        "type": "Point",
        "coordinates": [
          -81.7745,
          26.1483
        ]
      },
      "properties": {
        "nameshort": "Naples Municipal Airport",
        "country": "United States"
      }
    },
    {
      "type": "Feature",
      "geometry": {
        "type": "Point",
        "coordinates": [
          -131.787,
          -8.64687
        ]
      },
      "properties": {
        "nameshort": "French Polynesia",
        "country": "French Polynesia"
      }
    },
    {
      "type": "Feature",
      "geometry": {
        "type": "Point",
        "coordinates": [
          39.2814,
          -15.1
        ]
      },
      "properties": {
        "nameshort": "Nampula Airport",
        "country": "Mozambique"
      }
    },
    {
      "type": "Feature",
      "geometry": {
        "type": "Point",
        "coordinates": [
          -83.5683,
          45.07
        ]
      },
      "properties": {
        "nameshort": "Alpena County Regional Airport",
        "country": "United States"
      }
    },
    {
      "type": "Feature",
      "geometry": {
        "type": "Point",
        "coordinates": [
          -76.6321,
          7.88361
        ]
      },
      "properties": {
        "nameshort": "Apartado Airport",
        "country": "Colombia"
      }
    },
    {
      "type": "Feature",
      "geometry": {
        "type": "Point",
        "coordinates": [
          -171.993,
          -13.8255
        ]
      },
      "properties": {
        "nameshort": "Faleolo Airport",
        "country": "Samoa"
      }
    },
    {
      "type": "Feature",
      "geometry": {
        "type": "Point",
        "coordinates": [
          117.033,
          30.5167
        ]
      },
      "properties": {
        "nameshort": "Anqing Airport",
        "country": "China"
      }
    },
    {
      "type": "Feature",
      "geometry": {
        "type": "Point",
        "coordinates": [
          46.13,
          28.3317
        ]
      },
      "properties": {
        "nameshort": "Hafr Al Batin Airport",
        "country": "Saudi Arabia"
      }
    },
    {
      "type": "Feature",
      "geometry": {
        "type": "Point",
        "coordinates": [
          35.0178,
          29.6119
        ]
      },
      "properties": {
        "nameshort": "Aqaba International Airport",
        "country": "Jordan"
      }
    },
    {
      "type": "Feature",
      "geometry": {
        "type": "Point",
        "coordinates": [
          -71.5692,
          -16.3372
        ]
      },
      "properties": {
        "nameshort": "Rodriguez Ballon Airport",
        "country": "Peru"
      }
    },
    {
      "type": "Feature",
      "geometry": {
        "type": "Point",
        "coordinates": [
          -145.583,
          68.1167
        ]
      },
      "properties": {
        "nameshort": "Arctic Village Airport",
        "country": "United States"
      }
    },
    {
      "type": "Feature",
      "geometry": {
        "type": "Point",
        "coordinates": [
          -93.1848,
          35.1437
        ]
      },
      "properties": {
        "nameshort": "Alor Island",
        "country": "Indonesia"
      }
    },
    {
      "type": "Feature",
      "geometry": {
        "type": "Point",
        "coordinates": [
          40.4242,
          64.4465
        ]
      },
      "properties": {
        "nameshort": "Arkhangelsk Airport",
        "country": "Russia"
      }
    },
    {
      "type": "Feature",
      "geometry": {
        "type": "Point",
        "coordinates": [
          -70.3358,
          -18.3458
        ]
      },
      "properties": {
        "nameshort": "Chacalluta Airport",
        "country": "Chile"
      }
    },
    {
      "type": "Feature",
      "geometry": {
        "type": "Point",
        "coordinates": [
          36.6738,
          -3.36515
        ]
      },
      "properties": {
        "nameshort": "Arusha Airport",
        "country": "Tanzania"
      }
    },
    {
      "type": "Feature",
      "geometry": {
        "type": "Point",
        "coordinates": [
          151.618,
          -30.5308
        ]
      },
      "properties": {
        "nameshort": "Armidale Airport",
        "country": "Australia"
      }
    },
    {
      "type": "Feature",
      "geometry": {
        "type": "Point",
        "coordinates": [
          17.9317,
          59.6521
        ]
      },
      "properties": {
        "nameshort": "Arlanda Airport",
        "country": "Sweden"
      }
    },
    {
      "type": "Feature",
      "geometry": {
        "type": "Point",
        "coordinates": [
          -76.0232,
          43.9942
        ]
      },
      "properties": {
        "nameshort": "Watertown International Airport",
        "country": "United States"
      }
    },
    {
      "type": "Feature",
      "geometry": {
        "type": "Point",
        "coordinates": [
          -50.4261,
          -21.1436
        ]
      },
      "properties": {
        "nameshort": "Aracatuba Airport",
        "country": "Brazil"
      }
    },
    {
      "type": "Feature",
      "geometry": {
        "type": "Point",
        "coordinates": [
          -89.7371,
          45.9296
        ]
      },
      "properties": {
        "nameshort": "Lakelan-Noble F. Lee Memerial Field Airport",
        "country": "United States"
      }
    },
    {
      "type": "Feature",
      "geometry": {
        "type": "Point",
        "coordinates": [
          21.2609,
          46.1805
        ]
      },
      "properties": {
        "nameshort": "Ceala Airport",
        "country": "Romania"
      }
    },
    {
      "type": "Feature",
      "geometry": {
        "type": "Point",
        "coordinates": [
          -97.0528,
          31.4124
        ]
      },
      "properties": {
        "nameshort": "Assab",
        "country": "Ethiopia"
      }
    },
    {
      "type": "Feature",
      "geometry": {
        "type": "Point",
        "coordinates": [
          58.3294,
          37.9842
        ]
      },
      "properties": {
        "nameshort": "Ashkhabad Northwest Airport",
        "country": "Turkmenistan"
      }
    },
    {
      "type": "Feature",
      "geometry": {
        "type": "Point",
        "coordinates": [
          -77.7961,
          24.6978
        ]
      },
      "properties": {
        "nameshort": "Andros Town Airport",
        "country": "Bahamas"
      }
    },
    {
      "type": "Feature",
      "geometry": {
        "type": "Point",
        "coordinates": [
          -106.864,
          39.2197
        ]
      },
      "properties": {
        "nameshort": "Aspen Pitkin County Airport-Sardy Field",
        "country": "United States"
      }
    },
    {
      "type": "Feature",
      "geometry": {
        "type": "Point",
        "coordinates": [
          48.0515,
          46.2971
        ]
      },
      "properties": {
        "nameshort": "Astrakhan Southeast Airport",
        "country": "Russia"
      }
    },
    {
      "type": "Feature",
      "geometry": {
        "type": "Point",
        "coordinates": [
          -14.4081,
          -7.93586
        ]
      },
      "properties": {
        "nameshort": "Wideawake Fld",
        "country": "St. Helena"
      }
    },
    {
      "type": "Feature",
      "geometry": {
        "type": "Point",
        "coordinates": [
          129.712,
          28.431
        ]
      },
      "properties": {
        "nameshort": "Amami Airport",
        "country": "Japan"
      }
    },
    {
      "type": "Feature",
      "geometry": {
        "type": "Point",
        "coordinates": [
          38.9103,
          15.2906
        ]
      },
      "properties": {
        "nameshort": "Yohannes Iv International Airport",
        "country": "Eritrea"
      }
    },
    {
      "type": "Feature",
      "geometry": {
        "type": "Point",
        "coordinates": [
          34.5344,
          10.0611
        ]
      },
      "properties": {
        "nameshort": "Ethiopia",
        "country": "Ethiopia"
      }
    },
    {
      "type": "Feature",
      "geometry": {
        "type": "Point",
        "coordinates": [
          133.892,
          -23.802
        ]
      },
      "properties": {
        "nameshort": "Alice Springs Airport",
        "country": "Australia"
      }
    },
    {
      "type": "Feature",
      "geometry": {
        "type": "Point",
        "coordinates": [
          35.4939,
          38.7708
        ]
      },
      "properties": {
        "nameshort": "Erkilet Airport",
        "country": "Turkey"
      }
    },
    {
      "type": "Feature",
      "geometry": {
        "type": "Point",
        "coordinates": [
          -57.5189,
          -25.2397
        ]
      },
      "properties": {
        "nameshort": "Silvio Pettirossi International Airport",
        "country": "Paraguay"
      }
    },
    {
      "type": "Feature",
      "geometry": {
        "type": "Point",
        "coordinates": [
          37.25,
          -2.63333
        ]
      },
      "properties": {
        "nameshort": "Amboseli",
        "country": "Kenya"
      }
    },
    {
      "type": "Feature",
      "geometry": {
        "type": "Point",
        "coordinates": [
          32.8217,
          23.965
        ]
      },
      "properties": {
        "nameshort": "Aswan Airport",
        "country": "Egypt"
      }
    },
    {
      "type": "Feature",
      "geometry": {
        "type": "Point",
        "coordinates": [
          33.9833,
          17.7
        ]
      },
      "properties": {
        "nameshort": "Atbara",
        "country": "Sudan"
      }
    },
    {
      "type": "Feature",
      "geometry": {
        "type": "Point",
        "coordinates": [
          -75.6734,
          24.6287
        ]
      },
      "properties": {
        "nameshort": "Arthur's Town Airport",
        "country": "Bahamas"
      }
    },
    {
      "type": "Feature",
      "geometry": {
        "type": "Point",
        "coordinates": [
          161.033,
          -8.86667
        ]
      },
      "properties": {
        "nameshort": "Atoifi",
        "country": "Solomon Islands"
      }
    },
    {
      "type": "Feature",
      "geometry": {
        "type": "Point",
        "coordinates": [
          23.7235,
          37.8937
        ]
      },
      "properties": {
        "nameshort": "Eleftherios Venizelos International Airport",
        "country": "Greece"
      }
    },
    {
      "type": "Feature",
      "geometry": {
        "type": "Point",
        "coordinates": [
          -157.331,
          70.4639
        ]
      },
      "properties": {
        "nameshort": "Atqasuk Airport",
        "country": "United States"
      }
    },
    {
      "type": "Feature",
      "geometry": {
        "type": "Point",
        "coordinates": [
          -84.4333,
          33.6558
        ]
      },
      "properties": {
        "nameshort": "Hartsfield-Jackson Atlanta International Airport",
        "country": "United States"
      }
    },
    {
      "type": "Feature",
      "geometry": {
        "type": "Point",
        "coordinates": [
          -52.2517,
          -3.2506
        ]
      },
      "properties": {
        "nameshort": "Altamira Airport",
        "country": "Brazil"
      }
    },
    {
      "type": "Feature",
      "geometry": {
        "type": "Point",
        "coordinates": [
          74.7955,
          31.7131
        ]
      },
      "properties": {
        "nameshort": "Raja Sansi Airport",
        "country": "India"
      }
    },
    {
      "type": "Feature",
      "geometry": {
        "type": "Point",
        "coordinates": [
          -13.0436,
          20.5067
        ]
      },
      "properties": {
        "nameshort": "Atar Airport",
        "country": "Mauritania"
      }
    },
    {
      "type": "Feature",
      "geometry": {
        "type": "Point",
        "coordinates": [
          -162.276,
          60.865
        ]
      },
      "properties": {
        "nameshort": "Atmautluak Airport",
        "country": "United States"
      }
    },
    {
      "type": "Feature",
      "geometry": {
        "type": "Point",
        "coordinates": [
          -88.5111,
          44.2603
        ]
      },
      "properties": {
        "nameshort": "Outagamie County Airport",
        "country": "United States"
      }
    },
    {
      "type": "Feature",
      "geometry": {
        "type": "Point",
        "coordinates": [
          -97.1609,
          44.9216
        ]
      },
      "properties": {
        "nameshort": "Watertown Municipal Airport",
        "country": "United States"
      }
    },
    {
      "type": "Feature",
      "geometry": {
        "type": "Point",
        "coordinates": [
          31.0114,
          27.0411
        ]
      },
      "properties": {
        "nameshort": "Asyut Airport",
        "country": "Egypt"
      }
    },
    {
      "type": "Feature",
      "geometry": {
        "type": "Point",
        "coordinates": [
          -70.0139,
          12.5022
        ]
      },
      "properties": {
        "nameshort": "Reina Beatrix International Airport",
        "country": "Aruba"
      }
    },
    {
      "type": "Feature",
      "geometry": {
        "type": "Point",
        "coordinates": [
          -70.7406,
          7.0703
        ]
      },
      "properties": {
        "nameshort": "Santiago Perez Airport",
        "country": "Colombia"
      }
    },
    {
      "type": "Feature",
      "geometry": {
        "type": "Point",
        "coordinates": [
          -69.7933,
          44.3181
        ]
      },
      "properties": {
        "nameshort": "Augusta State Airport",
        "country": "United States"
      }
    },
    {
      "type": "Feature",
      "geometry": {
        "type": "Point",
        "coordinates": [
          54.6489,
          24.4331
        ]
      },
      "properties": {
        "nameshort": "Abu Dhabi International Airport",
        "country": "United Arab Emirates"
      }
    },
    {
      "type": "Feature",
      "geometry": {
        "type": "Point",
        "coordinates": [
          -164.633,
          62.6833
        ]
      },
      "properties": {
        "nameshort": "Alakanuk Airport",
        "country": "United States"
      }
    },
    {
      "type": "Feature",
      "geometry": {
        "type": "Point",
        "coordinates": [
          -139.015,
          -9.7719
        ]
      },
      "properties": {
        "nameshort": "Atuona Airport",
        "country": "French Polynesia"
      }
    },
    {
      "type": "Feature",
      "geometry": {
        "type": "Point",
        "coordinates": [
          2.41982,
          44.8984
        ]
      },
      "properties": {
        "nameshort": "Aurillac Airport",
        "country": "France"
      }
    },
    {
      "type": "Feature",
      "geometry": {
        "type": "Point",
        "coordinates": [
          -97.6653,
          30.2027
        ]
      },
      "properties": {
        "nameshort": "Austin-Bergstrom International Airport",
        "country": "United States"
      }
    },
    {
      "type": "Feature",
      "geometry": {
        "type": "Point",
        "coordinates": [
          -48.2403,
          -7.2281
        ]
      },
      "properties": {
        "nameshort": "Araguaina Airport",
        "country": "Brazil"
      }
    },
    {
      "type": "Feature",
      "geometry": {
        "type": "Point",
        "coordinates": [
          169.825,
          -20.1909
        ]
      },
      "properties": {
        "nameshort": "Vanuatu",
        "country": "Vanuatu"
      }
    },
    {
      "type": "Feature",
      "geometry": {
        "type": "Point",
        "coordinates": [
          -82.5373,
          35.4349
        ]
      },
      "properties": {
        "nameshort": "Asheville Regional Airport",
        "country": "United States"
      }
    },
    {
      "type": "Feature",
      "geometry": {
        "type": "Point",
        "coordinates": [
          4.89951,
          43.9056
        ]
      },
      "properties": {
        "nameshort": "Avignon-Caumont Airport",
        "country": "France"
      }
    },
    {
      "type": "Feature",
      "geometry": {
        "type": "Point",
        "coordinates": [
          -75.7294,
          41.3354
        ]
      },
      "properties": {
        "nameshort": "Wilkes Barre Scranton International Airport",
        "country": "United States"
      }
    },
    {
      "type": "Feature",
      "geometry": {
        "type": "Point",
        "coordinates": [
          160.417,
          -9.85
        ]
      },
      "properties": {
        "nameshort": "Avu Avu",
        "country": "Solomon Islands"
      }
    },
    {
      "type": "Feature",
      "geometry": {
        "type": "Point",
        "coordinates": [
          144.468,
          -38.0408
        ]
      },
      "properties": {
        "nameshort": "Avalon Airport",
        "country": "Australia"
      }
    },
    {
      "type": "Feature",
      "geometry": {
        "type": "Point",
        "coordinates": [
          142.75,
          -8.01667
        ]
      },
      "properties": {
        "nameshort": "Awaba",
        "country": "Papua New Guinea"
      }
    },
    {
      "type": "Feature",
      "geometry": {
        "type": "Point",
        "coordinates": [
          169.598,
          -19.2501
        ]
      },
      "properties": {
        "nameshort": "Aniwa Airport",
        "country": "Vanuatu"
      }
    },
    {
      "type": "Feature",
      "geometry": {
        "type": "Point",
        "coordinates": [
          48.7597,
          31.3378
        ]
      },
      "properties": {
        "nameshort": "Ahvaz Airport",
        "country": "Iran"
      }
    },
    {
      "type": "Feature",
      "geometry": {
        "type": "Point",
        "coordinates": [
          -63.0575,
          18.2103
        ]
      },
      "properties": {
        "nameshort": "Wallblake Airport",
        "country": "Anguilla"
      }
    },
    {
      "type": "Feature",
      "geometry": {
        "type": "Point",
        "coordinates": [
          25.9567,
          40.8567
        ]
      },
      "properties": {
        "nameshort": "Alexandroupolis Airport",
        "country": "Greece"
      }
    },
    {
      "type": "Feature",
      "geometry": {
        "type": "Point",
        "coordinates": [
          -75.7681,
          4.4564
        ]
      },
      "properties": {
        "nameshort": "El Eden Airport",
        "country": "Colombia"
      }
    },
    {
      "type": "Feature",
      "geometry": {
        "type": "Point",
        "coordinates": [
          -73.9775,
          22.4441
        ]
      },
      "properties": {
        "nameshort": "Spring Point Airport",
        "country": "Bahamas"
      }
    },
    {
      "type": "Feature",
      "geometry": {
        "type": "Point",
        "coordinates": [
          -146.538,
          -15.5098
        ]
      },
      "properties": {
        "nameshort": "French Polynesia",
        "country": "French Polynesia"
      }
    },
    {
      "type": "Feature",
      "geometry": {
        "type": "Point",
        "coordinates": [
          140.219,
          39.6153
        ]
      },
      "properties": {
        "nameshort": "Akita Airport",
        "country": "Japan"
      }
    },
    {
      "type": "Feature",
      "geometry": {
        "type": "Point",
        "coordinates": [
          38.7726,
          14.147
        ]
      },
      "properties": {
        "nameshort": "Axum",
        "country": "Ethiopia"
      }
    },
    {
      "type": "Feature",
      "geometry": {
        "type": "Point",
        "coordinates": [
          130.977,
          -25.1872
        ]
      },
      "properties": {
        "nameshort": "Ayers Rock Airport",
        "country": "Australia"
      }
    },
    {
      "type": "Feature",
      "geometry": {
        "type": "Point",
        "coordinates": [
          30.7917,
          36.9022
        ]
      },
      "properties": {
        "nameshort": "Antalya Airport",
        "country": "Turkey"
      }
    },
    {
      "type": "Feature",
      "geometry": {
        "type": "Point",
        "coordinates": [
          -111.656,
          33.3078
        ]
      },
      "properties": {
        "nameshort": "Phoenix-Mesa Gateway Airport",
        "country": "United States"
      }
    },
    {
      "type": "Feature",
      "geometry": {
        "type": "Point",
        "coordinates": [
          54.2786,
          31.905
        ]
      },
      "properties": {
        "nameshort": "Yazd Airport",
        "country": "Iran"
      }
    },
    {
      "type": "Feature",
      "geometry": {
        "type": "Point",
        "coordinates": [
          72.2931,
          40.7324
        ]
      },
      "properties": {
        "nameshort": "Andizhan Airport",
        "country": "Uzbekistan"
      }
    },
    {
      "type": "Feature",
      "geometry": {
        "type": "Point",
        "coordinates": [
          -85.5563,
          42.2398
        ]
      },
      "properties": {
        "nameshort": "Kalamazoo-Battle Creek International Airport",
        "country": "United States"
      }
    },
    {
      "type": "Feature",
      "geometry": {
        "type": "Point",
        "coordinates": [
          -0.1864,
          27.8378
        ]
      },
      "properties": {
        "nameshort": "Touat Airport",
        "country": "Algeria"
      }
    },
    {
      "type": "Feature",
      "geometry": {
        "type": "Point",
        "coordinates": [
          -69.3279,
          19.2099
        ]
      },
      "properties": {
        "nameshort": "Samana El Catey International Airport",
        "country": "Dominican Republic"
      }
    },
    {
      "type": "Feature",
      "geometry": {
        "type": "Point",
        "coordinates": [
          120.619,
          16.3764
        ]
      },
      "properties": {
        "nameshort": "Baguio Airport",
        "country": "Philippines"
      }
    },
    {
      "type": "Feature",
      "geometry": {
        "type": "Point",
        "coordinates": [
          50.6234,
          26.2736
        ]
      },
      "properties": {
        "nameshort": "Bahrain International Airport",
        "country": "Bahrain"
      }
    },
    {
      "type": "Feature",
      "geometry": {
        "type": "Point",
        "coordinates": [
          41.1167,
          37.93
        ]
      },
      "properties": {
        "nameshort": "Batman Airport",
        "country": "Turkey"
      }
    },
    {
      "type": "Feature",
      "geometry": {
        "type": "Point",
        "coordinates": [
          -74.7789,
          10.8961
        ]
      },
      "properties": {
        "nameshort": "Ernesto Cortissoz Airport",
        "country": "Colombia"
      }
    },
    {
      "type": "Feature",
      "geometry": {
        "type": "Point",
        "coordinates": [
          155.9,
          -7.98333
        ]
      },
      "properties": {
        "nameshort": "Balalae",
        "country": "Solomon Islands"
      }
    },
    {
      "type": "Feature",
      "geometry": {
        "type": "Point",
        "coordinates": [
          -49.0531,
          -22.345
        ]
      },
      "properties": {
        "nameshort": "Bauru Airport",
        "country": "Brazil"
      }
    },
    {
      "type": "Feature",
      "geometry": {
        "type": "Point",
        "coordinates": [
          109.998,
          40.5679
        ]
      },
      "properties": {
        "nameshort": "Baotou Airport",
        "country": "China"
      }
    },
    {
      "type": "Feature",
      "geometry": {
        "type": "Point",
        "coordinates": [
          83.75,
          53.3667
        ]
      },
      "properties": {
        "nameshort": "Barnaui West Airport",
        "country": "Russia"
      }
    },
    {
      "type": "Feature",
      "geometry": {
        "type": "Point",
        "coordinates": [
          23.465,
          47.6589
        ]
      },
      "properties": {
        "nameshort": "Baia Mare",
        "country": "Romania"
      }
    },
    {
      "type": "Feature",
      "geometry": {
        "type": "Point",
        "coordinates": [
          -71.6869,
          -45.9167
        ]
      },
      "properties": {
        "nameshort": "Balmaceda Airport",
        "country": "Chile"
      }
    },
    {
      "type": "Feature",
      "geometry": {
        "type": "Point",
        "coordinates": [
          85.8152,
          20.2466
        ]
      },
      "properties": {
        "nameshort": "Bhubaneswar Airport",
        "country": "India"
      }
    },
    {
      "type": "Feature",
      "geometry": {
        "type": "Point",
        "coordinates": [
          25.1667,
          -17.8333
        ]
      },
      "properties": {
        "nameshort": "Kasane Airport",
        "country": "Botswana"
      }
    },
    {
      "type": "Feature",
      "geometry": {
        "type": "Point",
        "coordinates": [
          115.467,
          3.73333
        ]
      },
      "properties": {
        "nameshort": "Bario Airport",
        "country": "Malaysia"
      }
    },
    {
      "type": "Feature",
      "geometry": {
        "type": "Point",
        "coordinates": [
          44.95,
          10.3917
        ]
      },
      "properties": {
        "nameshort": "Berbera Airport",
        "country": "Somalia"
      }
    },
    {
      "type": "Feature",
      "geometry": {
        "type": "Point",
        "coordinates": [
          -0.84173,
          51.3252
        ]
      },
      "properties": {
        "nameshort": "Blackbushe Airport",
        "country": "United Kingdom"
      }
    },
    {
      "type": "Feature",
      "geometry": {
        "type": "Point",
        "coordinates": [
          26.087,
          44.4966
        ]
      },
      "properties": {
        "nameshort": "Aeroportul National Bucuresti-Baneasa",
        "country": "Romania"
      }
    },
    {
      "type": "Feature",
      "geometry": {
        "type": "Point",
        "coordinates": [
          -74.5064,
          20.3644
        ]
      },
      "properties": {
        "nameshort": "Baracoa Airport",
        "country": "Cuba"
      }
    },
    {
      "type": "Feature",
      "geometry": {
        "type": "Point",
        "coordinates": [
          122.929,
          10.6444
        ]
      },
      "properties": {
        "nameshort": "Bacolod Airport",
        "country": "Philippines"
      }
    },
    {
      "type": "Feature",
      "geometry": {
        "type": "Point",
        "coordinates": [
          145.305,
          -23.5635
        ]
      },
      "properties": {
        "nameshort": "Barcaldine Aerodrome",
        "country": "Australia"
      }
    },
    {
      "type": "Feature",
      "geometry": {
        "type": "Point",
        "coordinates": [
          -83.5966,
          10.7856
        ]
      },
      "properties": {
        "nameshort": "Barra Colorado Airport",
        "country": "Costa Rica"
      }
    },
    {
      "type": "Feature",
      "geometry": {
        "type": "Point",
        "coordinates": [
          26.8997,
          46.5283
        ]
      },
      "properties": {
        "nameshort": "Luizi Calugara Airport",
        "country": "Romania"
      }
    },
    {
      "type": "Feature",
      "geometry": {
        "type": "Point",
        "coordinates": [
          2.07976,
          41.3006
        ]
      },
      "properties": {
        "nameshort": "Barcelona International Airport",
        "country": "Spain"
      }
    },
    {
      "type": "Feature",
      "geometry": {
        "type": "Point",
        "coordinates": [
          -64.6903,
          32.3675
        ]
      },
      "properties": {
        "nameshort": "Bermuda International Airport",
        "country": "Bermuda"
      }
    },
    {
      "type": "Feature",
      "geometry": {
        "type": "Point",
        "coordinates": [
          152.322,
          -24.9046
        ]
      },
      "properties": {
        "nameshort": "Bundaberg Airport",
        "country": "Australia"
      }
    },
    {
      "type": "Feature",
      "geometry": {
        "type": "Point",
        "coordinates": [
          142.142,
          -10.1214
        ]
      },
      "properties": {
        "nameshort": "Badu Island Airport",
        "country": "Australia"
      }
    },
    {
      "type": "Feature",
      "geometry": {
        "type": "Point",
        "coordinates": [
          54.8239,
          26.5333
        ]
      },
      "properties": {
        "nameshort": "Bandar Lengeh Airport",
        "country": "Iran"
      }
    },
    {
      "type": "Feature",
      "geometry": {
        "type": "Point",
        "coordinates": [
          114.757,
          -3.4425
        ]
      },
      "properties": {
        "nameshort": "Syamsuddin Noor Airport",
        "country": "Indonesia"
      }
    },
    {
      "type": "Feature",
      "geometry": {
        "type": "Point",
        "coordinates": [
          -72.6816,
          41.9271
        ]
      },
      "properties": {
        "nameshort": "Bradley International Airport",
        "country": "United States"
      }
    },
    {
      "type": "Feature",
      "geometry": {
        "type": "Point",
        "coordinates": [
          107.576,
          -6.9017
        ]
      },
      "properties": {
        "nameshort": "Husein Sastranegara Airport",
        "country": "Indonesia"
      }
    },
    {
      "type": "Feature",
      "geometry": {
        "type": "Point",
        "coordinates": [
          88.0833,
          26.5667
        ]
      },
      "properties": {
        "nameshort": "Bhadrapur",
        "country": "Nepal"
      }
    },
    {
      "type": "Feature",
      "geometry": {
        "type": "Point",
        "coordinates": [
          73.2264,
          22.3367
        ]
      },
      "properties": {
        "nameshort": "Vadodara Airport",
        "country": "India"
      }
    },
    {
      "type": "Feature",
      "geometry": {
        "type": "Point",
        "coordinates": [
          -73.1283,
          41.1636
        ]
      },
      "properties": {
        "nameshort": "Igor I Sikorsky Memorial Airport",
        "country": "United States"
      }
    },
    {
      "type": "Feature",
      "geometry": {
        "type": "Point",
        "coordinates": [
          17.9426,
          40.6626
        ]
      },
      "properties": {
        "nameshort": "Casale Airport",
        "country": "Italy"
      }
    },
    {
      "type": "Feature",
      "geometry": {
        "type": "Point",
        "coordinates": [
          18.539,
          69.0589
        ]
      },
      "properties": {
        "nameshort": "Bardufoss Airport",
        "country": "Norway"
      }
    },
    {
      "type": "Feature",
      "geometry": {
        "type": "Point",
        "coordinates": [
          -7.37041,
          57.4756
        ]
      },
      "properties": {
        "nameshort": "Benbecula Airport",
        "country": "United Kingdom"
      }
    },
    {
      "type": "Feature",
      "geometry": {
        "type": "Point",
        "coordinates": [
          20.3122,
          44.8192
        ]
      },
      "properties": {
        "nameshort": "Surcin Airport",
        "country": "Serbia"
      }
    },
    {
      "type": "Feature",
      "geometry": {
        "type": "Point",
        "coordinates": [
          -48.4783,
          -1.3844
        ]
      },
      "properties": {
        "nameshort": "Val de Caes International Airport",
        "country": "Brazil"
      }
    },
    {
      "type": "Feature",
      "geometry": {
        "type": "Point",
        "coordinates": [
          -87.1192,
          35.6425
        ]
      },
      "properties": {
        "nameshort": "Benina Intl",
        "country": "Libya"
      }
    },
    {
      "type": "Feature",
      "geometry": {
        "type": "Point",
        "coordinates": [
          -4.41511,
          48.4458
        ]
      },
      "properties": {
        "nameshort": "Guipavas Airport",
        "country": "France"
      }
    },
    {
      "type": "Feature",
      "geometry": {
        "type": "Point",
        "coordinates": [
          -161.847,
          60.7788
        ]
      },
      "properties": {
        "nameshort": "Bethel Airport",
        "country": "United States"
      }
    },
    {
      "type": "Feature",
      "geometry": {
        "type": "Point",
        "coordinates": [
          139.463,
          -24.3544
        ]
      },
      "properties": {
        "nameshort": "Bedourie Aerodrome",
        "country": "Australia"
      }
    },
    {
      "type": "Feature",
      "geometry": {
        "type": "Point",
        "coordinates": [
          34.9089,
          -19.7958
        ]
      },
      "properties": {
        "nameshort": "Beira Airport",
        "country": "Mozambique"
      }
    },
    {
      "type": "Feature",
      "geometry": {
        "type": "Point",
        "coordinates": [
          35.4925,
          33.825
        ]
      },
      "properties": {
        "nameshort": "Beirut International Airport",
        "country": "Lebanon"
      }
    },
    {
      "type": "Feature",
      "geometry": {
        "type": "Point",
        "coordinates": [
          -78.6407,
          41.7964
        ]
      },
      "properties": {
        "nameshort": "Bradford Regional Airport",
        "country": "United States"
      }
    },
    {
      "type": "Feature",
      "geometry": {
        "type": "Point",
        "coordinates": [
          8.5,
          52.0
        ]
      },
      "properties": {
        "nameshort": "Bielefeld",
        "country": "Germany"
      }
    },
    {
      "type": "Feature",
      "geometry": {
        "type": "Point",
        "coordinates": [
          -103.597,
          41.8683
        ]
      },
      "properties": {
        "nameshort": "William B Heilig Field Airport",
        "country": "United States"
      }
    },
    {
      "type": "Feature",
      "geometry": {
        "type": "Point",
        "coordinates": [
          -122.304,
          47.5369
        ]
      },
      "properties": {
        "nameshort": "King County International Airport-Boeing Field",
        "country": "United States"
      }
    },
    {
      "type": "Feature",
      "geometry": {
        "type": "Point",
        "coordinates": [
          -119.044,
          35.4288
        ]
      },
      "properties": {
        "nameshort": "Kern County-Meadows Field Airport",
        "country": "United States"
      }
    },
    {
      "type": "Feature",
      "geometry": {
        "type": "Point",
        "coordinates": [
          26.3027,
          -29.0942
        ]
      },
      "properties": {
        "nameshort": "J B M Hertzog Airport",
        "country": "South Africa"
      }
    },
    {
      "type": "Feature",
      "geometry": {
        "type": "Point",
        "coordinates": [
          -6.225,
          54.6542
        ]
      },
      "properties": {
        "nameshort": "Aldergrove Airport",
        "country": "United Kingdom"
      }
    },
    {
      "type": "Feature",
      "geometry": {
        "type": "Point",
        "coordinates": [
          103.253,
          15.2295
        ]
      },
      "properties": {
        "nameshort": "Buri Ram",
        "country": "Thailand"
      }
    },
    {
      "type": "Feature",
      "geometry": {
        "type": "Point",
        "coordinates": [
          -73.1883,
          7.1217
        ]
      },
      "properties": {
        "nameshort": "Palonegro Airport",
        "country": "Colombia"
      }
    },
    {
      "type": "Feature",
      "geometry": {
        "type": "Point",
        "coordinates": [
          18.5203,
          4.3961
        ]
      },
      "properties": {
        "nameshort": "Bangui M Poko Airport",
        "country": "Central African Republic"
      }
    },
    {
      "type": "Feature",
      "geometry": {
        "type": "Point",
        "coordinates": [
          -59.4939,
          13.0719
        ]
      },
      "properties": {
        "nameshort": "Grantley Adams International Airport",
        "country": "Barbados"
      }
    },
    {
      "type": "Feature",
      "geometry": {
        "type": "Point",
        "coordinates": [
          -75.9825,
          42.2082
        ]
      },
      "properties": {
        "nameshort": "Greater Binghamton Edwin A Link Field Airport",
        "country": "United States"
      }
    },
    {
      "type": "Feature",
      "geometry": {
        "type": "Point",
        "coordinates": [
          5.22065,
          60.2907
        ]
      },
      "properties": {
        "nameshort": "Bergen Flesland Airport",
        "country": "Norway"
      }
    },
    {
      "type": "Feature",
      "geometry": {
        "type": "Point",
        "coordinates": [
          -68.8167,
          44.8086
        ]
      },
      "properties": {
        "nameshort": "Bangor International Airport",
        "country": "United States"
      }
    },
    {
      "type": "Feature",
      "geometry": {
        "type": "Point",
        "coordinates": [
          44.3639,
          33.3328
        ]
      },
      "properties": {
        "nameshort": "Al Muthana Airport",
        "country": "Iraq"
      }
    },
    {
      "type": "Feature",
      "geometry": {
        "type": "Point",
        "coordinates": [
          9.699,
          45.6664
        ]
      },
      "properties": {
        "nameshort": "Orio Al Serio Airport",
        "country": "Italy"
      }
    },
    {
      "type": "Feature",
      "geometry": {
        "type": "Point",
        "coordinates": [
          -68.3615,
          44.4461
        ]
      },
      "properties": {
        "nameshort": "Hancock County-Bar Harbor Airport",
        "country": "United States"
      }
    },
    {
      "type": "Feature",
      "geometry": {
        "type": "Point",
        "coordinates": [
          -5.87096,
          54.6151
        ]
      },
      "properties": {
        "nameshort": "George Best Belfast City Airport",
        "country": "United Kingdom"
      }
    },
    {
      "type": "Feature",
      "geometry": {
        "type": "Point",
        "coordinates": [
          173.87,
          -41.52
        ]
      },
      "properties": {
        "nameshort": "Woodbourne Airport",
        "country": "New Zealand"
      }
    },
    {
      "type": "Feature",
      "geometry": {
        "type": "Point",
        "coordinates": [
          -84.551,
          15.7636
        ]
      },
      "properties": {
        "nameshort": "Brus Laguna Airport",
        "country": "Honduras"
      }
    },
    {
      "type": "Feature",
      "geometry": {
        "type": "Point",
        "coordinates": [
          42.6267,
          19.9817
        ]
      },
      "properties": {
        "nameshort": "Bisha Airport",
        "country": "Saudi Arabia"
      }
    },
    {
      "type": "Feature",
      "geometry": {
        "type": "Point",
        "coordinates": [
          -62.1539,
          -38.7261
        ]
      },
      "properties": {
        "nameshort": "Bahia Blanca Cte Espora Naval Air Base",
        "country": "Argentina"
      }
    },
    {
      "type": "Feature",
      "geometry": {
        "type": "Point",
        "coordinates": [
          69.6706,
          23.2875
        ]
      },
      "properties": {
        "nameshort": "Bhuj Airport",
        "country": "India"
      }
    },
    {
      "type": "Feature",
      "geometry": {
        "type": "Point",
        "coordinates": [
          64.4895,
          39.7948
        ]
      },
      "properties": {
        "nameshort": "Bukhara Airport",
        "country": "Uzbekistan"
      }
    },
    {
      "type": "Feature",
      "geometry": {
        "type": "Point",
        "coordinates": [
          -86.7492,
          33.5604
        ]
      },
      "properties": {
        "nameshort": "Birmingham International Airport",
        "country": "United States"
      }
    },
    {
      "type": "Feature",
      "geometry": {
        "type": "Point",
        "coordinates": [
          77.3383,
          23.2844
        ]
      },
      "properties": {
        "nameshort": "Bairagarh Airport",
        "country": "India"
      }
    },
    {
      "type": "Feature",
      "geometry": {
        "type": "Point",
        "coordinates": [
          141.466,
          -32.0031
        ]
      },
      "properties": {
        "nameshort": "Broken Hill Airport",
        "country": "Australia"
      }
    },
    {
      "type": "Feature",
      "geometry": {
        "type": "Point",
        "coordinates": [
          50.6071,
          25.9173
        ]
      },
      "properties": {
        "nameshort": "Bharatpur",
        "country": "Nepal"
      }
    },
    {
      "type": "Feature",
      "geometry": {
        "type": "Point",
        "coordinates": [
          149.657,
          -33.4121
        ]
      },
      "properties": {
        "nameshort": "Bathurst Airport",
        "country": "Australia"
      }
    },
    {
      "type": "Feature",
      "geometry": {
        "type": "Point",
        "coordinates": [
          72.1867,
          21.7536
        ]
      },
      "properties": {
        "nameshort": "Bhavnagar Airport",
        "country": "India"
      }
    },
    {
      "type": "Feature",
      "geometry": {
        "type": "Point",
        "coordinates": [
          71.7125,
          29.3444
        ]
      },
      "properties": {
        "nameshort": "Bahawalpur Airport",
        "country": "Pakistan"
      }
    },
    {
      "type": "Feature",
      "geometry": {
        "type": "Point",
        "coordinates": [
          -1.73847,
          52.4531
        ]
      },
      "properties": {
        "nameshort": "Birmingham International Airport",
        "country": "United Kingdom"
      }
    },
    {
      "type": "Feature",
      "geometry": {
        "type": "Point",
        "coordinates": [
          109.083,
          21.4833
        ]
      },
      "properties": {
        "nameshort": "Beihai",
        "country": "China"
      }
    },
    {
      "type": "Feature",
      "geometry": {
        "type": "Point",
        "coordinates": [
          9.48341,
          42.5497
        ]
      },
      "properties": {
        "nameshort": "Poretta Airport",
        "country": "France"
      }
    },
    {
      "type": "Feature",
      "geometry": {
        "type": "Point",
        "coordinates": [
          -71.58,
          41.1696
        ]
      },
      "properties": {
        "nameshort": "Block Island State Airport",
        "country": "United States"
      }
    },
    {
      "type": "Feature",
      "geometry": {
        "type": "Point",
        "coordinates": [
          165.383,
          11.5833
        ]
      },
      "properties": {
        "nameshort": "Enyu Airfield",
        "country": "Marshall Islands"
      }
    },
    {
      "type": "Feature",
      "geometry": {
        "type": "Point",
        "coordinates": [
          136.117,
          -1.0
        ]
      },
      "properties": {
        "nameshort": "Frans Kaisiepo Airport",
        "country": "Indonesia"
      }
    },
    {
      "type": "Feature",
      "geometry": {
        "type": "Point",
        "coordinates": [
          -108.537,
          45.8034
        ]
      },
      "properties": {
        "nameshort": "Logan International Airport",
        "country": "United States"
      }
    },
    {
      "type": "Feature",
      "geometry": {
        "type": "Point",
        "coordinates": [
          -79.2636,
          25.6994
        ]
      },
      "properties": {
        "nameshort": "South Bimini Airport",
        "country": "Bahamas"
      }
    },
    {
      "type": "Feature",
      "geometry": {
        "type": "Point",
        "coordinates": [
          -2.91112,
          43.3025
        ]
      },
      "properties": {
        "nameshort": "Bilbao Airport",
        "country": "Spain"
      }
    },
    {
      "type": "Feature",
      "geometry": {
        "type": "Point",
        "coordinates": [
          -1.53137,
          43.472
        ]
      },
      "properties": {
        "nameshort": "Anglet Airport",
        "country": "France"
      }
    },
    {
      "type": "Feature",
      "geometry": {
        "type": "Point",
        "coordinates": [
          87.2647,
          26.4814
        ]
      },
      "properties": {
        "nameshort": "Biratnagar Airport",
        "country": "Nepal"
      }
    },
    {
      "type": "Feature",
      "geometry": {
        "type": "Point",
        "coordinates": [
          -100.757,
          46.7745
        ]
      },
      "properties": {
        "nameshort": "Bismarck Municipal Airport",
        "country": "United States"
      }
    },
    {
      "type": "Feature",
      "geometry": {
        "type": "Point",
        "coordinates": [
          5.0697,
          36.7133
        ]
      },
      "properties": {
        "nameshort": "Soummam Airport",
        "country": "Algeria"
      }
    },
    {
      "type": "Feature",
      "geometry": {
        "type": "Point",
        "coordinates": [
          57.3007,
          37.4933
        ]
      },
      "properties": {
        "nameshort": "Bojnord",
        "country": "Iran"
      }
    },
    {
      "type": "Feature",
      "geometry": {
        "type": "Point",
        "coordinates": [
          29.6948,
          70.6031
        ]
      },
      "properties": {
        "nameshort": "Batsfjord Airport",
        "country": "Norway"
      }
    },
    {
      "type": "Feature",
      "geometry": {
        "type": "Point",
        "coordinates": [
          -94.9338,
          47.5065
        ]
      },
      "properties": {
        "nameshort": "Bemidji-Beltrami County Airport",
        "country": "United States"
      }
    },
    {
      "type": "Feature",
      "geometry": {
        "type": "Point",
        "coordinates": [
          -16.6544,
          13.3372
        ]
      },
      "properties": {
        "nameshort": "Yundum International Airport",
        "country": "Gambia"
      }
    },
    {
      "type": "Feature",
      "geometry": {
        "type": "Point",
        "coordinates": [
          29.3208,
          -3.3317
        ]
      },
      "properties": {
        "nameshort": "Bujumbura Airport",
        "country": "Burundi"
      }
    },
    {
      "type": "Feature",
      "geometry": {
        "type": "Point",
        "coordinates": [
          37.3687,
          11.5564
        ]
      },
      "properties": {
        "nameshort": "Ethiopia",
        "country": "Ethiopia"
      }
    },
    {
      "type": "Feature",
      "geometry": {
        "type": "Point",
        "coordinates": [
          27.4362,
          37.0413
        ]
      },
      "properties": {
        "nameshort": "Milas Airport",
        "country": "Turkey"
      }
    },
    {
      "type": "Feature",
      "geometry": {
        "type": "Point",
        "coordinates": [
          120.983,
          -8.78333
        ]
      },
      "properties": {
        "nameshort": "Bajawa Airport",
        "country": "Indonesia"
      }
    },
    {
      "type": "Feature",
      "geometry": {
        "type": "Point",
        "coordinates": [
          -101.478,
          20.9903
        ]
      },
      "properties": {
        "nameshort": "Silao Airport",
        "country": "Mexico"
      }
    },
    {
      "type": "Feature",
      "geometry": {
        "type": "Point",
        "coordinates": [
          -6.81921,
          38.8939
        ]
      },
      "properties": {
        "nameshort": "Talavera la Real Airport",
        "country": "Spain"
      }
    },
    {
      "type": "Feature",
      "geometry": {
        "type": "Point",
        "coordinates": [
          37.9763,
          55.5516
        ]
      },
      "properties": {
        "nameshort": "Bykovo Airport",
        "country": "Russia"
      }
    },
    {
      "type": "Feature",
      "geometry": {
        "type": "Point",
        "coordinates": [
          -161.167,
          65.9833
        ]
      },
      "properties": {
        "nameshort": "Buckland Airport",
        "country": "United States"
      }
    },
    {
      "type": "Feature",
      "geometry": {
        "type": "Point",
        "coordinates": [
          116.049,
          5.9386
        ]
      },
      "properties": {
        "nameshort": "Kota Kinabalu Airport",
        "country": "Malaysia"
      }
    },
    {
      "type": "Feature",
      "geometry": {
        "type": "Point",
        "coordinates": [
          100.608,
          13.9144
        ]
      },
      "properties": {
        "nameshort": "Bangkok International Airport",
        "country": "Thailand"
      }
    },
    {
      "type": "Feature",
      "geometry": {
        "type": "Point",
        "coordinates": [
          -81.6869,
          41.5115
        ]
      },
      "properties": {
        "nameshort": "Burke Lakefront Airport",
        "country": "United States"
      }
    },
    {
      "type": "Feature",
      "geometry": {
        "type": "Point",
        "coordinates": [
          114.402,
          3.94515
        ]
      },
      "properties": {
        "nameshort": "Malaysia",
        "country": "Malaysia"
      }
    },
    {
      "type": "Feature",
      "geometry": {
        "type": "Point",
        "coordinates": [
          -7.9486,
          12.5361
        ]
      },
      "properties": {
        "nameshort": "Bamako Senou Airport",
        "country": "Mali"
      }
    },
    {
      "type": "Feature",
      "geometry": {
        "type": "Point",
        "coordinates": [
          145.429,
          -24.4292
        ]
      },
      "properties": {
        "nameshort": "Blackall Aerodrome",
        "country": "Australia"
      }
    },
    {
      "type": "Feature",
      "geometry": {
        "type": "Point",
        "coordinates": [
          102.339,
          -3.8633
        ]
      },
      "properties": {
        "nameshort": "Padangkemiling Airport",
        "country": "Indonesia"
      }
    },
    {
      "type": "Feature",
      "geometry": {
        "type": "Point",
        "coordinates": [
          -81.1174,
          37.7849
        ]
      },
      "properties": {
        "nameshort": "Raleigh County Memorial Airport",
        "country": "United States"
      }
    },
    {
      "type": "Feature",
      "geometry": {
        "type": "Point",
        "coordinates": [
          28.8139,
          -2.3014
        ]
      },
      "properties": {
        "nameshort": "Bukavu Kavumu Airport",
        "country": "Congo"
      }
    },
    {
      "type": "Feature",
      "geometry": {
        "type": "Point",
        "coordinates": [
          -64.6872,
          10.1103
        ]
      },
      "properties": {
        "nameshort": "Jose Antonio Anzoategui Airport",
        "country": "Venezuela"
      }
    },
    {
      "type": "Feature",
      "geometry": {
        "type": "Point",
        "coordinates": [
          15.5081,
          60.4297
        ]
      },
      "properties": {
        "nameshort": "Dala Airport",
        "country": "Sweden"
      }
    },
    {
      "type": "Feature",
      "geometry": {
        "type": "Point",
        "coordinates": [
          -122.532,
          48.7955
        ]
      },
      "properties": {
        "nameshort": "Bellingham International Airport",
        "country": "United States"
      }
    },
    {
      "type": "Feature",
      "geometry": {
        "type": "Point",
        "coordinates": [
          6.17229,
          35.5572
        ]
      },
      "properties": {
        "nameshort": "Algeria",
        "country": "Algeria"
      }
    },
    {
      "type": "Feature",
      "geometry": {
        "type": "Point",
        "coordinates": [
          -3.04118,
          53.7756
        ]
      },
      "properties": {
        "nameshort": "Blackpool Airport",
        "country": "United Kingdom"
      }
    },
    {
      "type": "Feature",
      "geometry": {
        "type": "Point",
        "coordinates": [
          9.15354,
          55.742
        ]
      },
      "properties": {
        "nameshort": "Billund Airport",
        "country": "Denmark"
      }
    },
    {
      "type": "Feature",
      "geometry": {
        "type": "Point",
        "coordinates": [
          11.2903,
          44.5345
        ]
      },
      "properties": {
        "nameshort": "Bologna Airport",
        "country": "Italy"
      }
    },
    {
      "type": "Feature",
      "geometry": {
        "type": "Point",
        "coordinates": [
          77.6656,
          12.9526
        ]
      },
      "properties": {
        "nameshort": "HAL Bangalore International Airport",
        "country": "India"
      }
    },
    {
      "type": "Feature",
      "geometry": {
        "type": "Point",
        "coordinates": [
          148.805,
          -23.6012
        ]
      },
      "properties": {
        "nameshort": "Blackwater Aerodrome",
        "country": "Australia"
      }
    },
    {
      "type": "Feature",
      "geometry": {
        "type": "Point",
        "coordinates": [
          -89.8499,
          38.5412
        ]
      },
      "properties": {
        "nameshort": "Belleville",
        "country": "United States"
      }
    },
    {
      "type": "Feature",
      "geometry": {
        "type": "Point",
        "coordinates": [
          34.9714,
          -15.6764
        ]
      },
      "properties": {
        "nameshort": "Chileka International Airport",
        "country": "Malawi"
      }
    },
    {
      "type": "Feature",
      "geometry": {
        "type": "Point",
        "coordinates": [
          17.9378,
          59.3562
        ]
      },
      "properties": {
        "nameshort": "Bromma Airport",
        "country": "Sweden"
      }
    },
    {
      "type": "Feature",
      "geometry": {
        "type": "Point",
        "coordinates": [
          122.233,
          -17.9464
        ]
      },
      "properties": {
        "nameshort": "Broome International Airport",
        "country": "Australia"
      }
    },
    {
      "type": "Feature",
      "geometry": {
        "type": "Point",
        "coordinates": [
          -88.9134,
          40.4841
        ]
      },
      "properties": {
        "nameshort": "Bloomington Normal Airport",
        "country": "United States"
      }
    },
    {
      "type": "Feature",
      "geometry": {
        "type": "Point",
        "coordinates": [
          6.71294,
          53.5797
        ]
      },
      "properties": {
        "nameshort": "Borkum Airport",
        "country": "Germany"
      }
    },
    {
      "type": "Feature",
      "geometry": {
        "type": "Point",
        "coordinates": [
          97.2517,
          24.2739
        ]
      },
      "properties": {
        "nameshort": "Bhamo Airport",
        "country": "Myanmar"
      }
    },
    {
      "type": "Feature",
      "geometry": {
        "type": "Point",
        "coordinates": [
          118.682,
          -8.5444
        ]
      },
      "properties": {
        "nameshort": "Mohammad Salahuddin Airport",
        "country": "Indonesia"
      }
    },
    {
      "type": "Feature",
      "geometry": {
        "type": "Point",
        "coordinates": [
          108.05,
          12.6667
        ]
      },
      "properties": {
        "nameshort": "Ban Me Thaut",
        "country": "Vietnam"
      }
    },
    {
      "type": "Feature",
      "geometry": {
        "type": "Point",
        "coordinates": [
          1.65284,
          28.0269
        ]
      },
      "properties": {
        "nameshort": "Algeria",
        "country": "Algeria"
      }
    },
    {
      "type": "Feature",
      "geometry": {
        "type": "Point",
        "coordinates": [
          163.667,
          -19.75
        ]
      },
      "properties": {
        "nameshort": "Belep Island",
        "country": "New Caledonia"
      }
    },
    {
      "type": "Feature",
      "geometry": {
        "type": "Point",
        "coordinates": [
          -86.6682,
          36.1342
        ]
      },
      "properties": {
        "nameshort": "Nashville International Airport",
        "country": "United States"
      }
    },
    {
      "type": "Feature",
      "geometry": {
        "type": "Point",
        "coordinates": [
          56.3783,
          27.225
        ]
      },
      "properties": {
        "nameshort": "Bandar Abbass International Airport",
        "country": "Iran"
      }
    },
    {
      "type": "Feature",
      "geometry": {
        "type": "Point",
        "coordinates": [
          153.122,
          -27.3589
        ]
      },
      "properties": {
        "nameshort": "Brisbane International Airport",
        "country": "Australia"
      }
    },
    {
      "type": "Feature",
      "geometry": {
        "type": "Point",
        "coordinates": [
          5.6,
          6.3161
        ]
      },
      "properties": {
        "nameshort": "Benin Airport",
        "country": "Nigeria"
      }
    },
    {
      "type": "Feature",
      "geometry": {
        "type": "Point",
        "coordinates": [
          7.16449,
          50.7667
        ]
      },
      "properties": {
        "nameshort": "Hangelar",
        "country": "Germany"
      }
    },
    {
      "type": "Feature",
      "geometry": {
        "type": "Point",
        "coordinates": [
          153.555,
          -28.8342
        ]
      },
      "properties": {
        "nameshort": "Ballina Airport",
        "country": "Australia"
      }
    },
    {
      "type": "Feature",
      "geometry": {
        "type": "Point",
        "coordinates": [
          12.2161,
          65.462
        ]
      },
      "properties": {
        "nameshort": "Bronnoy Airport",
        "country": "Norway"
      }
    },
    {
      "type": "Feature",
      "geometry": {
        "type": "Point",
        "coordinates": [
          -70.2181,
          8.6211
        ]
      },
      "properties": {
        "nameshort": "Barinas Airport",
        "country": "Venezuela"
      }
    },
    {
      "type": "Feature",
      "geometry": {
        "type": "Point",
        "coordinates": [
          17.2992,
          44.9403
        ]
      },
      "properties": {
        "nameshort": "Banja Luka Airport",
        "country": "Bosnia and Herzegovina"
      }
    },
    {
      "type": "Feature",
      "geometry": {
        "type": "Point",
        "coordinates": [
          159.801,
          -11.2961
        ]
      },
      "properties": {
        "nameshort": "Bellona Airport",
        "country": "Solomon Islands"
      }
    },
    {
      "type": "Feature",
      "geometry": {
        "type": "Point",
        "coordinates": [
          -151.767,
          -16.45
        ]
      },
      "properties": {
        "nameshort": "Motu-Mute Airport",
        "country": "French Polynesia"
      }
    },
    {
      "type": "Feature",
      "geometry": {
        "type": "Point",
        "coordinates": [
          -82.2514,
          9.34
        ]
      },
      "properties": {
        "nameshort": "Bocas del Toro Airport",
        "country": "Panama"
      }
    },
    {
      "type": "Feature",
      "geometry": {
        "type": "Point",
        "coordinates": [
          -0.70278,
          44.8291
        ]
      },